id,lat,lon,name,cvegeo,pob_2010,imu2010,gmu2010
109,19.425311,-99.137421,109 NEZAHUALCOYOTL-ISABEL LA CATOLICA,0901500010964,3446,-0.599417176873837,Medio
102,19.42821,-99.13949,102 ECHEVESTE-BOLIVAR,090150001088A,2228,-0.749624151314995,Bajo
414,19.370187,-99.173712,414 PARROQUIA-JOSÉ IGNACIO BARTOLACHE,0901400010806,4885,-1.253430550090670,Muy bajo
415,19.371498,-99.17602,415 SAN FRANCISCO-PARROQUÍA,0901400010806,4885,-1.253430550090670,Muy bajo
416,19.371308,-99.177607,416 RECREO-PARROQUÍA,0901400010806,4885,-1.253430550090670,Muy bajo
350,19.384062,-99.181482,350 JOSE CLEMENTE OROZCO-CORREGGIO,0901400010562,3293,-1.298516052389030,Muy bajo
363,19.380813,-99.183851,363 HOLBEIN-PAULO UCELLO,0901400010562,3293,-1.298516052389030,Muy bajo
392,19.3730067,-99.1747749,392 PATRICIO SANZ-FELIX CUEVAS,0901400010736,5019,-1.171559763519740,Muy bajo
393,19.372796,-99.172558,393 ADOLFO PRIETO-FELIX CUEVAS,0901400010736,5019,-1.171559763519740,Muy bajo
394,19.372437,-99.171592,394 DR. ROBERTO GAYOL-FELIX CUEVAS,0901400010736,5019,-1.171559763519740,Muy bajo
395,19.373742,-99.169814,395 SAN LORENZO-CALLEJÓN MARTÍN MENLALDE,0901400010736,5019,-1.171559763519740,Muy bajo
413,19.369782,-99.171906,413 PARROQUIA-AVENIDA COYOACÁN,0901400010736,5019,-1.171559763519740,Muy bajo
397,19.373194,-99.167247,397 SAN LORENZO-GABRIEL MANCERA,0901400010755,5165,-1.222597614413540,Muy bajo
398,19.37103,-99.16566,398 SANCHEZ AZCONA-FELIX CUEVAS,0901400010755,5165,-1.222597614413540,Muy bajo
399,19.372407,-99.164519,399 HERIBERTO FRÍAS-SAN LORENZO,0901400010755,5165,-1.222597614413540,Muy bajo
400,19.3726458,-99.1642743,400 SAN LORENZO-HERIBERTO FRIAS,0901400010755,5165,-1.222597614413540,Muy bajo
358,19.380168,-99.164222,358 NICOLAS SAN JUAN-MATIAS ROMERO ,0901400010613,4894,-1.227715273272460,Muy bajo
359,19.379269,-99.161169,359 MATIAS ROMERO -PESTALLOZZI,0901400010613,4894,-1.227715273272460,Muy bajo
360,19.3790279,-99.1628259,E360 HERIBERTO FRÍAS-MATIAS ROMERO,0901400010613,4894,-1.227715273272460,Muy bajo
374,19.376964,-99.161116,374 PITÁGORAS-PILARES,0901400010613,4894,-1.227715273272460,Muy bajo
377,19.375394,-99.16375,377 HERIBERTO FRÍAS-MIGUEL LAURENT,0901400010613,4894,-1.227715273272460,Muy bajo
163,19.405246,-99.156431,163 TOLUCA-BAJÍO,0901500011479,2583,-0.979657309262587,Muy bajo
371,19.378542,-99.174328,371 TLACOQUEMECATL-CAPULIN,0901400010721,4042,-1.193690880979430,Muy bajo
380,19.374876,-99.173512,380 MORAS-SAN LORENZO,0901400010721,4042,-1.193690880979430,Muy bajo
36,19.419725,-99.175778,36 PUEBLA-VERACRUZ,0901500011089,2303,-0.924967852378493,Bajo
37,19.420419,-99.172676,37 GUADALAJARA-PUEBLA,0901500011089,2303,-0.924967852378493,Bajo
38,19.420801,-99.171407,38 COZUMEL-PUEBLA,0901500011089,2303,-0.924967852378493,Bajo
449,19.42018,-99.174393,E449 ACAPULCO-PUEBLA,0901500011089,2303,-0.924967852378493,Bajo
401,19.372147,-99.16158,401 SAN LORENZO-AVENIDA CUAUHTEMOC,090140001083A,2850,-1.172439390654050,Muy bajo
406,19.367831,-99.163261,406 PARROQUIA AV. MEXICO-COYOACAN,090140001083A,2850,-1.172439390654050,Muy bajo
427,19.365023,-99.162993,427 AVENIDA MÉXICO-COYOACAN-AV. POPOCATEPETL (EJE ,090140001083A,2850,-1.172439390654050,Muy bajo
426,19.365519,-99.166017,426 CERRADA DE POPOCATEPETL-AV. POPOCATEPETL (EJE ,0901400010952,2695,-0.943886797132035,Bajo
441,19.361215,-99.167527,441 PUENTE XOCO-REAL DE MAYORAZGO,0901400010952,2695,-0.943886797132035,Bajo
442,19.359905,-99.1653,442 REAL DE MAYORAZGO-AVENIDA MÉXICO-COYOACAN,0901400010952,2695,-0.943886797132035,Bajo
338,19.384249,-99.163273,338 NICOLAS SAN JUAN-SAN BORJA,0901400010416,2771,-1.353284445998680,Muy bajo
343,19.384099,-99.160826,343 ENRIQUE RÉBSAMEN-DIVISIÓN DEL NORTE,0901400010416,2771,-1.353284445998680,Muy bajo
344,19.382107,-99.162243,344 HERIBERTO FRÍAS-ANGEL URRAZA EJE 6 SUR,0901400010416,2771,-1.353284445998680,Muy bajo
349,19.385688,-99.180857,349 AUGUSTO RODIN-AVENIDA SAN ANTONIO,090140001037A,2011,-1.206582644588360,Muy bajo
372,19.37797,-99.170289,372 DR. ROBERTO GAYOL-TLACOQUEMECATL,0901400010740,3657,-1.310515129635780,Muy bajo
378,19.375823,-99.168076,378 MIGUEL LAURENT-AMORES,0901400010740,3657,-1.310515129635780,Muy bajo
379,19.375751,-99.17084,379 DR. ROBERTO GAYOL-MIGUEL LAURENT,0901400010740,3657,-1.310515129635780,Muy bajo
440,19.36065,-99.168669,440 REAL DE MAYORAZGO-PUENTE XOCO,0901400010967,613,-0.552007626968827,Medio
86,19.432378,-99.159077,86 SULLIVAN-INSURGENTES,0901500010697,7115,-0.950384563299505,Bajo
254,19.43935,-99.16007,254 ALFONSO HERRERA-MIGUEL SHULTZ ,0901500010697,7115,-0.950384563299505,Bajo
256,19.4372,-99.15816,256 GÓMEZ FARÍAS-SADI CARNOT ,0901500010697,7115,-0.950384563299505,Bajo
263,19.436274,-99.158425,263 SADI CARNOT-GÓMEZ FARIAS ,0901500010697,7115,-0.950384563299505,Bajo
291,19.397651,-99.169946,291 MAGDALENA-DIVISIÓN DEL NORTE,0901400010238,6271,-1.335862717586310,Muy bajo
300,19.393268,-99.168333,E300 PROVIDENCIA -LUZ SAVIÑON,0901400010238,6271,-1.335862717586310,Muy bajo
301,19.393807,-99.171133,301 LUZ SAVIÑÓN-MAGDALENA,0901400010238,6271,-1.335862717586310,Muy bajo
316,19.391056,-99.1712,316 SAN FRANCISCO-CONCEPCIÓN BEISTEGUI,0901400010238,6271,-1.335862717586310,Muy bajo
317,19.391456,-99.166157,317 AVENIDA COYOACÁN-TORRES ADALID,0901400010238,6271,-1.335862717586310,Muy bajo
323,19.389026,-99.163403,323 CONCEPCIÓN BEISTEGUI-GABRIEL MANCERA,0901400010238,6271,-1.335862717586310,Muy bajo
325,19.3881779,-99.1696894,325 PROVIDENCIA -AVENIDA DEL VALLE,0901400010399,3427,-1.211958911894020,Muy bajo
336,19.385531,-99.169673,336 SAN BORJA-CDA. BARTOLOCHE,0901400010399,3427,-1.211958911894020,Muy bajo
324,19.3872468,-99.1656554,324 AMORES-AVENIDA EUGENIA,0901400010401,5022,-1.256559057334720,Muy bajo
337,19.384849,-99.16704,337 SAN BORJA-MARTÍN MENLALDE,0901400010401,5022,-1.256559057334720,Muy bajo
296,19.394283,-99.158756,E296 DIAGONAL SAN ANTONIO-ENRIQUE RÉBSAMEN,0901400010257,7303,-1.194805690487100,Muy bajo
298,19.394073,-99.16214,298 ROMERO DE TERREROS-GABRIEL MANCERA,0901400010257,7303,-1.194805690487100,Muy bajo
319,19.391991,-99.162684,319 DIAGONAL SAN ANTONIO-LUZ SAVIÑON,0901400010257,7303,-1.194805690487100,Muy bajo
320,19.391323,-99.15936,320 ENRIQUE RÉBSAMEN-LUZ SAVIÑON,0901400010257,7303,-1.194805690487100,Muy bajo
321,19.389477,-99.157513,321 TORRES ADALID-ANAXÁGORAS,0901400010257,7303,-1.194805690487100,Muy bajo
322,19.388528,-99.160616,322 HERIBERTO FRÍAS-CONCEPCIÓN BEISTEGUI,0901400010257,7303,-1.194805690487100,Muy bajo
292,19.396917,-99.166264,292 ADOLFO PRIETO-EJE 4 SUR XOLA,0901400010242,3757,-1.237574466560120,Muy bajo
299,19.394601,-99.165054,299 ROMERO DE TERREROS-MIER Y PESADO,0901400010242,3757,-1.237574466560120,Muy bajo
318,19.392249,-99.164127,318 LUZ SAVIÑÓN-AMORES,0901400010242,3757,-1.237574466560120,Muy bajo
289,19.397308,-99.174548,289 CHICAGO-YOSEMITE,0901400010204,4155,-1.288198156722490,Muy bajo
305,19.394693,-99.175531,305 AVENIDA DEL PARQUE-ARIZONA,0901400010204,4155,-1.288198156722490,Muy bajo
306,19.393699,-99.175664,306 DAKOTA-FILADELFIA,0901400010204,4155,-1.288198156722490,Muy bajo
307,19.393701,-99.175834,307 MINESOTA-DAKOTA,0901400010204,4155,-1.288198156722490,Muy bajo
284,19.397693,-99.172981,284 DAKOTA-VERMONT,0901400010219,2355,-1.225435678242780,Muy bajo
290,19.396333,-99.172667,290 YOSEMITE-COLORADO,0901400010219,2355,-1.225435678242780,Muy bajo
303,19.394842,-99.173025,303 MONTESITO-AV. INSURGENTES,0901400010219,2355,-1.225435678242780,Muy bajo
304,19.395043,-99.173821,304 MONTESITO-DAKOTA,0901400010219,2355,-1.225435678242780,Muy bajo
308,19.393594,-99.178072,308 NUEVA YORK-ARIZONA,0901400010219,2355,-1.225435678242780,Muy bajo
309,19.393162,-99.17956,309 PENNSYLVANIA-ARIZONA,0901400010219,2355,-1.225435678242780,Muy bajo
314,19.391647,-99.177331,314 NUERVA YORK-LOUISIANA,0901400010219,2355,-1.225435678242780,Muy bajo
279,19.399908,-99.166553,279 LA MORENA-PROVIDENCIA,0901400010045,3611,-1.257044320855040,Muy bajo
283,19.39827,-99.167383,283 AV. COYOACÁN-RAFAEL DONDE,0901400010045,3611,-1.257044320855040,Muy bajo
278,19.40071,-99.163831,278 MIER Y PESADO-OBRERO MUNDIAL,090140001005A,4632,-1.244904875442800,Muy bajo
282,19.398692,-99.161273,282 LA MORENA-EJE 2 PONIENTE GABRIEL MANCERA,090140001005A,4632,-1.244904875442800,Muy bajo
293,19.397373,-99.164598,293 MIER Y PESADO-EJE 4 SUR XOLA,090140001005A,4632,-1.244904875442800,Muy bajo
294,19.396513,-99.160924,294 NICOLÁS SAN JUAN-EJE 4 SUR XOLA,090140001005A,4632,-1.244904875442800,Muy bajo
276,19.401986,-99.156366,276 ANAXÁGORAS-OBRERO MUNDIAL,0901400010011,3900,-1.104305081325990,Muy bajo
277,19.401807,-99.15909,277 AMPLIACIÓN TONALÁ-OBRERO MUNDIAL,0901400010011,3900,-1.104305081325990,Muy bajo
404,19.373813,-99.157387,404 MIGUEL LAURENT-AVENIDA DIVISIÓN DEL NORTE,0901400010774,6958,-1.044276399794770,Muy bajo
405,19.370619,-99.156626,405 DIVISIÓN DEL NORTE-MUNICIPIO LIBRE,0901400010774,6958,-1.044276399794770,Muy bajo
436,19.366217,-99.177819,436 RODRIGUEZ SARO-BUFALLO,0901400010933,2881,-1.251232484431290,Muy bajo
437,19.36480833,-99.17602222,437 MORAS-COMUNAL,0901400010933,2881,-1.251232484431290,Muy bajo
438,19.36479722,-99.17458333,438 ADOLFO PRIETO-JOSÉ MARÍA OLLOQUI,0901400010933,2881,-1.251232484431290,Muy bajo
428,19.363418,-99.160353,428 PROLONGACIÓN UXMAL-AV. POPOCATEPETL (EJE 8),0901400010971,3255,-1.327910536383670,Muy bajo
432,19.361296,-99.162581,432 CARRILLO PUERTO-AV. MÉXICO-COYOACÁN,0901400010971,3255,-1.327910536383670,Muy bajo
443,19.359655,-99.162025,443 BRUNO TRAVEN-GOLONDRINAS,0901400010971,3255,-1.327910536383670,Muy bajo
430,19.362139,-99.154974,430 TRIPOLI-AV. POPOCATEPETL (EJE 8),0901400010986,5026,-1.307548973368580,Muy bajo
431,19.36145,-99.15822,431 BRUNO TRAVEN-PAZ MONTES DE OCA,0901400010986,5026,-1.307548973368580,Muy bajo
444,19.359384,-99.159425,444 GENERAL MANUEL RINCÓN-AGUSTÍN GUTIERREZ,0901400010986,5026,-1.307548973368580,Muy bajo
445,19.35827,-99.156105,E445 RIFF-AVENIDA RIO CHURUBUSCO,0901400010986,5026,-1.307548973368580,Muy bajo
446,19.3586,-99.156101,446 RIFF-AVENIDA RIO CHURUBUSCO,0901400010986,5026,-1.307548973368580,Muy bajo
421,19.369467,-99.179401,421 MARÍA LUZ BRINGAS-OSO,0901400010929,3294,-1.354875657312510,Muy bajo
422,19.368356,-99.177487,422 BUFALO-JOSÉ MARÍA RICO (EJE 8),0901400010929,3294,-1.354875657312510,Muy bajo
423,19.367631,-99.175342,423 MORAS-JOSÉ MARÍA RICO (EJE 8),0901400010929,3294,-1.354875657312510,Muy bajo
288,19.396333,-99.183575,288 11 DE ABRIL-AVENIDA 2,0901400010187,5804,-1.133036309617960,Muy bajo
310,19.395319,-99.181733,310 CALLE 1-AV. PATRIOTISMO,0901400010187,5804,-1.133036309617960,Muy bajo
311,19.393665,-99.185391,311 CALLE 5-AVENIDA REVOLUCIÓN,0901400010187,5804,-1.133036309617960,Muy bajo
312,19.392634,-99.183737,312 AVENIDA 2-CALLE 7,0901400010187,5804,-1.133036309617960,Muy bajo
328,19.392586,-99.184742,328 AVENIDA 1-CALLE 7,0901400010187,5804,-1.133036309617960,Muy bajo
313,19.391431,-99.178989,313 PENNSYLVANIA-OKLAHOMA,0901400010191,3691,-1.266638469152690,Muy bajo
333,19.387624,-99.180978,333 GEORGIA -CAROLINA,0901400010191,3691,-1.266638469152690,Muy bajo
315,19.391472,-99.1736,315 ALABAMA-MONTANA,0901400010384,3275,-1.243363196390890,Muy bajo
326,19.388978,-99.174811,326 EUGENIA-NEBRASKA,0901400010384,3275,-1.243363196390890,Muy bajo
327,19.38885,-99.17772,E327 GEORGIA -PENNSYLVANIA,0901400010384,3275,-1.243363196390890,Muy bajo
334,19.386568,-99.175089,334 NUEVA YORK-AV. INSURGENTES,0901400010384,3275,-1.243363196390890,Muy bajo
302,19.393832,-99.171466,302 LUZ SAVIÑON-MAGDALENA,0901400010223,1234,-1.206511270321130,Muy bajo
335,19.387003,-99.173504,335 MAGDALENA-AMEYALCO,0901400010223,1234,-1.206511270321130,Muy bajo
346,19.385019,-99.174077,346 SAN FRANCISCO-SANTA MARGARITA,0901400010223,1234,-1.206511270321130,Muy bajo
356,19.381292,-99.170171,356 MATIAS ROMERO -ADOLFO PRIETO,0901400010609,4006,-1.329911665579930,Muy bajo
357,19.380598,-99.1669248,357 MATIAS ROMERO -AMORES,0901400010609,4006,-1.329911665579930,Muy bajo
373,19.377968,-99.166663,373 PILARES-GABRIEL MANCERA,0901400010609,4006,-1.329911665579930,Muy bajo
433,19.363558,-99.170819,433 JOSE MARÍA OLLOQUI-LOPÉZ COSTILLA,0901400010948,3014,-1.298226965299180,Muy bajo
434,19.363741,-99.171268,E434 JOSE MARÍA OLLOQUI-AMORES,0901400010948,3014,-1.298226965299180,Muy bajo
439,19.36218889,-99.17246667,439 AMORES-AVENIDA COYOACÁN,0901400010948,3014,-1.298226965299180,Muy bajo
407,19.367294,-99.158694,407 PROL. XOCHICALCO-GENERAL EMILIANO ZAPATA,0901400010844,4362,-1.270624642587310,Muy bajo
408,19.36677,-99.156843,408 PROLONGACIÓN PETÉN-GENERAL EMILIANO ZAPATA,0901400010844,4362,-1.270624642587310,Muy bajo
409,19.365102,-99.155499,409 AZORES-DIVISIÓN DEL NORTE,0901400010844,4362,-1.270624642587310,Muy bajo
410,19.36564,-99.158063,410 PROLONGACIÓN TAJÍN-PROLONGACIÓN REPÚBLICAS,0901400010844,4362,-1.270624642587310,Muy bajo
429,19.363071,-99.158292,429 PIRINEOS-AV. POPOCATEPETL (EJE 8),0901400010844,4362,-1.270624642587310,Muy bajo
342,19.381076,-99.159455,342 ANAXÁGORAS-ANGEL URRAZA EJE 6 SUR,0901400010628,5116,-1.168259841976010,Muy bajo
375,19.376865,-99.158818,375 TENAYUCA-DIVISIÓN DEL NORTE,090140001076A,3158,-1.264420234626570,Muy bajo
376,19.375442,-99.161595,376 PITÁGORAS-AV. UNIVERSIDAD,090140001076A,3158,-1.264420234626570,Muy bajo
402,19.3709452,-99.1587223,402 UXMAL-MUNICIPIO LIBRE,090140001076A,3158,-1.264420234626570,Muy bajo
403,19.371371,-99.158639,403 UXMAL-MUNICIPIO LIBRE,090140001076A,3158,-1.264420234626570,Muy bajo
411,19.367864,-99.163626,411 PARROQUIA-AVENIDA MÉXICO-COYOACAN,0901400010825,269,-1.315645426371130,Muy bajo
412,19.3684182,-99.1654145,412 PARROQUIA-AVENIDA UNIVERSIDAD,0901400010825,269,-1.315645426371130,Muy bajo
370,19.378818,-99.177054,370 TLACOQUEMECATL-AV. INSURGENTES,0901400010717,1254,-1.161736720052240,Muy bajo
381,19.375541,-99.177894,381 SAN LORENZO-MANZANAS,0901400010717,1254,-1.161736720052240,Muy bajo
382,19.375591,-99.178084,382 SAN LORENZO-AV. INSURGENTES,0901400010717,1254,-1.161736720052240,Muy bajo
390,19.373228,-99.17826,390 OSO-FELIX CUEVAS,0901400010717,1254,-1.161736720052240,Muy bajo
391,19.373142,-99.178283,E391 OSO-FELIX CUEVAS,0901400010717,1254,-1.161736720052240,Muy bajo
420,19.369723,-99.17964,420 MARÍA LUZ BRINGAS-OSO,0901400010717,1254,-1.161736720052240,Muy bajo
347,19.384378,-99.176097,347 PENNSYLVANIA-MAXIMINO AVILA CAMACHO,0901400010577,4959,-1.215972783052250,Muy bajo
348,19.385365,-99.178216,348 INDIANA-AVENIDA SAN ANTONIO,0901400010577,4959,-1.215972783052250,Muy bajo
353,19.382168,-99.178808,353 CAROLINA-HOLBEIN,0901400010577,4959,-1.215972783052250,Muy bajo
354,19.381665,-99.176685,354 BOSTON-AV. INSURGENTES,0901400010577,4959,-1.215972783052250,Muy bajo
362,19.382207,-99.181043,362 AUGUSTO RODIN-ALBERTO BALDERAS,0901400010577,4959,-1.215972783052250,Muy bajo
366,19.378345,-99.181973,366 PORFIRIO DÍAZ-AUGUSTO RODÍN,0901400010577,4959,-1.215972783052250,Muy bajo
367,19.37946,-99.181632,367 BOSTON -AUGUSTO RODÍN,0901400010577,4959,-1.215972783052250,Muy bajo
368,19.379246,-99.179344,368 PORFIRIO DÍAZ-CINCINATTI ,0901400010577,4959,-1.215972783052250,Muy bajo
369,19.379884,-99.177478,369 PORFIRIO DÍAZ-AV. INSURGENTES,0901400010577,4959,-1.215972783052250,Muy bajo
352,19.384114,-99.185447,352 TINTORETO-GIORGINE,0901400010558,1637,-1.372370040047120,Muy bajo
364,19.383063,-99.185858,364 BOTICHELLI-CDA. DE GIORGONE,0901400010558,1637,-1.372370040047120,Muy bajo
365,19.381117,-99.186687,365 HOLBEIN-AVENIDA REVOLUCIÓN,0901400010558,1637,-1.372370040047120,Muy bajo
396,19.371554,-99.170187,396 MARTÍN MENLALDE-FELIX CUEVAS,0901400010810,5918,-1.371892136843100,Muy bajo
424,19.367208,-99.170531,424 AMORES-JOSÉ MARÍA RICO (EJE 8),0901400010810,5918,-1.371892136843100,Muy bajo
425,19.367087,-99.16741,425 NICOLAS SAN JUAN-AVENIDA UNIVERSIDAD,0901400010810,5918,-1.371892136843100,Muy bajo
435,19.365154,-99.172906,435 RODRIGUEZ SARO-AVENIDA COYOACÁN,0901400010810,5918,-1.371892136843100,Muy bajo
280,19.4015,-99.156406,280 ANAXÁGORAS-OBRERO MUNDIAL,0901400010064,3835,-1.185598075066930,Muy bajo
281,19.398532,-99.157308,281 PITÁGORAS-LA MORENA,0901400010064,3835,-1.185598075066930,Muy bajo
295,19.396328,-99.156871,295 ANAXÁGORAS-EJE 4 SUR XOLA,0901400010064,3835,-1.185598075066930,Muy bajo
297,19.394412,-99.158907,297 DIAGONAL SAN ANTONIO-ENRIQUE RÉBSAMEN,0901400010064,3835,-1.185598075066930,Muy bajo
339,19.386032,-99.160548,339 ENRIQUE RÉBSAMEN-AVENIDA EUGENIA,0901400010420,4999,-1.148468431462580,Muy bajo
340,19.385571,-99.158188,340 ANAXÁGORAS-AVENIDA EUGENIA,0901400010420,4999,-1.148468431462580,Muy bajo
341,19.382851,-99.158204,341 SAN BORJA-AVENIDA CUAUHTEMOC,0901400010420,4999,-1.148468431462580,Muy bajo
329,19.390306,-99.184812,329 CALLE 13-AVENIDA 1,0901400010350,3156,-1.317807021129890,Muy bajo
330,19.389358,-99.182606,330 CALLE 15-AVENIDA PATRIOTISMO,0901400010350,3156,-1.317807021129890,Muy bajo
331,19.388547,-99.183971,331 AVENIDA 2-CALLE 17,0901400010350,3156,-1.317807021129890,Muy bajo
332,19.385508,-99.183809,332 SUR DE CALLE 27-AVENIDA 3,0901400010365,1600,-1.235760436070880,Muy bajo
351,19.385751,-99.186297,351 CALLE 27-AVENIDA REVOLUCIÓN,0901400010365,1600,-1.235760436070880,Muy bajo
383,19.375764,-99.181527,383 LUIS CARACCI-2DA. LUIS CARACCI,0901400010702,4438,-1.223343545135730,Muy bajo
384,19.375873,-99.185583,384 EMPRESA-POUSSIN,0901400010702,4438,-1.223343545135730,Muy bajo
385,19.375651,-99.18558,385 POUSSIN-EMPRESA,0901400010702,4438,-1.223343545135730,Muy bajo
387,19.37455556,-99.18050556,387 CADIZ-EMPRESA,0901400010702,4438,-1.223343545135730,Muy bajo
386,19.37484,-99.185846,386 POUSSIN-DONATELLO,0901400010793,3705,-1.185230884353990,Muy bajo
388,19.373038,-99.181355,388 VALENCIA-MALAGA,0901400010793,3705,-1.185230884353990,Muy bajo
389,19.373528,-99.179356,389 SANTANDER-FELIX CUEVAS,0901400010793,3705,-1.185230884353990,Muy bajo
417,19.373262,-99.184333,417 GOYA-AUGUSTO RODÍN,0901400010793,3705,-1.185230884353990,Muy bajo
418,19.371152,-99.183034,418 GALICIA-ACTIPAN,0901400010793,3705,-1.185230884353990,Muy bajo
419,19.370606,-99.181502,419 ACTIPAN-CADIZ,0901400010793,3705,-1.185230884353990,Muy bajo
345,19.384498,-99.172223,345 MIRAFLORES-PATRICIO SANZ,0901400010581,555,-1.264971422046560,Muy bajo
355,19.38205,-99.173291,355 CALIFORNIA-SACRAMENTO,0901400010581,555,-1.264971422046560,Muy bajo
361,19.380709,-99.17508,361 PORFIRIO DÍAZ-CAPULÍN,0901400010581,555,-1.264971422046560,Muy bajo
33,19.424234,-99.166431,E33 LONDRES-FLORENCIA,090150001095A,1165,-0.913102493944828,Bajo
34,19.424725,-99.163331,34 LIVERPOOL-GENOVA,090150001095A,1165,-0.913102493944828,Bajo
35,19.424674,-99.163292,35 LIVERPOOL-GENOVA,090150001095A,1165,-0.913102493944828,Bajo
121,19.424137,-99.161317,121 NIZA-CHAPULTEPEC,090150001095A,1165,-0.913102493944828,Bajo
31,19.427838,-99.161193,31 HAMBURGO-INSURGENTES,0901500010841,2504,-1.113083461233590,Muy bajo
116,19.428985,-99.15664,116 LONDRES-ROMA,0901500010841,2504,-1.113083461233590,Muy bajo
117,19.427132,-99.160369,117 LONDRES-NAPOLES ,0901500010841,2504,-1.113083461233590,Muy bajo
118,19.427114,-99.158251,118 LIVERPOOL-DINAMARCA,0901500010841,2504,-1.113083461233590,Muy bajo
120,19.425437,-99.159458,120 MARSELLA-NAPOLES,0901500010841,2504,-1.113083461233590,Muy bajo
21,19.42472,-99.17206,21 REFORMA-DUBLIN,0901500010945,1327,-1.182776735689740,Muy bajo
22,19.424375,-99.172575,22 REFORMA-MANCHESTER,0901500010945,1327,-1.182776735689740,Muy bajo
23,19.42517,-99.17105,23 REFORMA-PRAGA,0901500010945,1327,-1.182776735689740,Muy bajo
24,19.42647,-99.16822,24 REFORMA-VARSOVIA,0901500010945,1327,-1.182776735689740,Muy bajo
25,19.427317,-99.166662,25 REFORMA-ESTOCOLMO,0901500010945,1327,-1.182776735689740,Muy bajo
28,19.423542,-99.172494,28 TOLEDO-TOKIO,0901500010945,1327,-1.182776735689740,Muy bajo
30,19.426442,-99.164323,30 HAMBURGO-GENOVA,0901500010945,1327,-1.182776735689740,Muy bajo
48,19.433686,-99.146557,48 INDEPENDENCIA-AZUETA,0901500010748,3156,-0.695716984048910,Bajo
82,19.433115,-99.143686,82 INDEPENDENCIA-MARROQUI,0901500010748,3156,-0.695716984048910,Bajo
96,19.430625,-99.14248,96 LOPEZ-AYUNTAMIENTO,0901500010748,3156,-0.695716984048910,Bajo
29,19.434913,-99.149939,29 REFORMA-BUCARELI,0901500010733,332,-0.362865017179533,Medio
43,19.435228,-99.146063,43 JUAREZ-REVILLAGIGEDO,0901500010733,332,-0.362865017179533,Medio
52,19.436236,-99.142039,52 HIDALGO-TRUJANO,0901500010733,332,-0.362865017179533,Medio
260,19.435354,-99.147742,E260 AV JUAREZ-BALDERAS ,0901500010733,332,-0.362865017179533,Medio
72,19.409893,-99.179544,72 MAZATLAN-ALFONSO REYES,0901500011411,2084,-1.281497806382530,Muy bajo
77,19.406765,-99.178321,77 CHOAPAN-TAMAULIPAS,0901500011411,2084,-1.281497806382530,Muy bajo
78,19.407503,-99.177382,78 BENJAMIN HILL-TAMAULIPAS,0901500011411,2084,-1.281497806382530,Muy bajo
177,19.408841,-99.181692,177 BENJAMIN HILL-CARLOS ZETINA,0901500011411,2084,-1.281497806382530,Muy bajo
178,19.406833,-99.180457,178 TAMAULIPAS-FRANCISCO MURGUÍA,0901500011411,2084,-1.281497806382530,Muy bajo
103,19.441669,-99.165217,103 JOAQUÍN VELÁZQUEZ DE LEÓN-GARCÍA ICAZBALCETA,0901500010678,8504,-1.118194631813680,Muy bajo
111,19.4382369,-99.1659465,111 GUILLERMO PRIETO-JOAQUÍN VELÁZQUEZ DE LEÓN,0901500010678,8504,-1.118194631813680,Muy bajo
160,19.44025,-99.16346,E160 ALFONSO HERRERA-GABINO BARRERA,0901500010678,8504,-1.118194631813680,Muy bajo
183,19.43767,-99.16402,183 GABINO BARRERA-GUILLERMO PRIETO,0901500010678,8504,-1.118194631813680,Muy bajo
2,19.431386,-99.171695,2 RIO GUADALQUIVIR-RIO BALSAS,0901500010926,3060,-1.226505738627410,Muy bajo
4,19.428309,-99.171713,4 RIO NILO-RIO PANUCO,0901500010926,3060,-1.226505738627410,Muy bajo
9,19.428009,-99.169918,9 RIO GUADALQUIVIR-RIO LERMA,0901500010926,3060,-1.226505738627410,Muy bajo
60,19.414191,-99.177123,60 MAZATLAN-FERNANDO MONTES DE OCA,0901500011178,2599,-1.180169739923710,Muy bajo
258,19.4167,-99.1791,258 CIRCUITO INTERIOR-JUAN ESCUTIA ,0901500011178,2599,-1.180169739923710,Muy bajo
447,19.418858,-99.176776,447 AGUSTÍN MELGAR-ZAMORA,0901500011178,2599,-1.180169739923710,Muy bajo
53,19.414773,-99.178433,53 FERNANDO MONTES DE OCA-TULA,0901500011303,2177,-1.120666999927570,Muy bajo
8,19.431141,-99.158317,8 REFORMA-GENERAL PRIM,0901500010803,631,-0.845512709350437,Bajo
26,19.432685,-99.154726,26 REFORMA-VERSALLES,0901500010803,631,-0.845512709350437,Bajo
27,19.429115,-99.162614,27 REFORMA-HAVRE,0901500010803,631,-0.845512709350437,Bajo
115,19.429947,-99.159698,115 ROMA-DINAMARCA ,0901500010803,631,-0.845512709350437,Bajo
3,19.431655,-99.158668,3 REFORMA-INSURGENTES,0901500010729,0,0.000000000000000,
10,19.433321,-99.154752,10 REFORMA-RAMIREZ,0901500010729,0,0.000000000000000,
44,19.418057,-99.174761,44 DURANGO-VERACRUZ,0901500011182,2617,-1.151346801023910,Muy bajo
45,19.418649,-99.172127,45 DURANGO-SONORA,0901500011182,2617,-1.151346801023910,Muy bajo
49,19.416712,-99.175704,49 MAZATLAN-JUAN DE LA BARRERA,0901500011182,2617,-1.151346801023910,Muy bajo
50,19.416938,-99.173648,50 CUERNAVACA-VERACRUZ,0901500011182,2617,-1.151346801023910,Muy bajo
54,19.416215,-99.170825,54 PARQUE ESPAÑA-SONORA,0901500011182,2617,-1.151346801023910,Muy bajo
57,19.414903,-99.17495,57 CUERNAVACA-JUAN ESCUTIA,0901500011182,2617,-1.151346801023910,Muy bajo
58,19.41568,-99.171793,58 PARQUE ESPAÑA-JUAN DE LA BARRERA,0901500011182,2617,-1.151346801023910,Muy bajo
91,19.4374,-99.137571,91 REPUBLICA DE CUBA-ALLENDE,0901500010644,10430,-0.272420905913021,Medio
262,19.43693,-99.13395,262 REPUBLICA DE CUBA-REPUBLICA DE BRASIL ,0901500010644,10430,-0.272420905913021,Medio
41,19.435637,-99.150137,41 REFORMA-AV. DE LA REPUBLICA,0901500010714,2705,-0.822693395916304,Bajo
270,19.43676,-99.15387,270 DE LA REPUBLICA-PONCIANO ARRIAGA ,0901500010714,2705,-0.822693395916304,Bajo
450,19.43836,-99.152226,450 RAMOS ARIZPE-PUENTE DE ALVARADO,0901500010714,2705,-0.822693395916304,Bajo
259,19.43757,-99.15468,259 TÓMAS ALVA EDISON-PONCIANO ARRIAGA ,090150001070A,1860,-0.954122321258751,Bajo
162,19.404907,-99.162485,162 TEHUANTEPEC-MEDELLÍN,0901500011464,2546,-1.129029640369230,Muy bajo
165,19.404268,-99.160503,165 BAJÍO-EJE 2 PTE. MONTERREY,0901500011464,2546,-1.129029640369230,Muy bajo
7,19.425468,-99.175166,7 RIO ELBA-RIO LERMA,0901500010930,768,-0.966810845200354,Muy bajo
13,19.42502,-99.17231,13 REFORMA-RIO MISSISSIPPI,0901500010930,768,-0.966810845200354,Muy bajo
14,19.424768,-99.173261,14 REFORMA-RIO DE PLATA,0901500010930,768,-0.966810845200354,Muy bajo
15,19.425477,-99.171567,15 REFORMA-RIO MISSISSIPPI,0901500010930,768,-0.966810845200354,Muy bajo
16,19.427226,-99.168242,16 REFORMA-RÍO TIBER,0901500010930,768,-0.966810845200354,Muy bajo
17,19.427501,-99.167125,17 REFORMA-RIO TIBER,0901500010930,768,-0.966810845200354,Muy bajo
261,19.42495,-99.17246,261 PASEO DE LA REFORMA - RÍO DE LA PLATA,0901500010930,768,-0.966810845200354,Muy bajo
5,19.42972,-99.169363,5 RIO PANUCO-RIO TIBER,0901500010822,4100,-1.332498456744350,Muy bajo
6,19.430922,-99.166959,6 RIO PANUCO-RIO SENA,0901500010822,4100,-1.332498456744350,Muy bajo
1,19.4335714,-99.1678091,1 RIO SENA-RIO BALSAS,0901500010790,2664,-1.062629648771510,Muy bajo
11,19.430992,-99.163593,11 RIO AMAZONAS-RIO LERMA,0901500010790,2664,-1.062629648771510,Muy bajo
12,19.432313,-99.161597,12 RIO LERMA-VILLALONGIN,0901500010790,2664,-1.062629648771510,Muy bajo
257,19.4338,-99.16622,E257 MANUEL MARIA CONTRERAS-VILLALONGIN ,0901500010790,2664,-1.062629648771510,Muy bajo
155,19.408218,-99.159911,E155 JALAPA-TLAXCALA,090150001138A,630,-1.145549058539170,Muy bajo
158,19.407447,-99.155717,158 HUATABAMPO-EJE 1PTE. CUAUHTÉMOC,090150001138A,630,-1.145549058539170,Muy bajo
159,19.407517,-99.155373,159 HUATABAMPO-EJE 1 PTE. AV. CUAUHTÉMOC,090150001138A,630,-1.145549058539170,Muy bajo
151,19.410529,-99.160873,151 CAMPECHE-TONALÁ,0901500011375,3332,-1.041403421931800,Muy bajo
32,19.422705,-99.169922,32 LONDRES-SEVILLA,0901500010983,1432,-1.159033280141640,Muy bajo
176,19.442689,-99.152286,176 AV. JESÜS GARCÏA-LUIS DONALDO COLOSIO,090150001049A,1477,-0.621398750307043,Medio
264,19.440985,-99.152935,264 HÉROES FERROCARRILEROS-AV. CENTRAL,090150001049A,1477,-0.621398750307043,Medio
265,19.440839,-99.152265,265 HÉROES FERROCARRILEROS-JESÚS GARCIA,090150001049A,1477,-0.621398750307043,Medio
266,19.444031,-99.152187,266 AV. JESÚS GARCIA-CARLOS J. MENESES ,090150001049A,1477,-0.621398750307043,Medio
267,19.443735,-99.152203,267 AV. JESÜS GARCÏA-CARLOS J. MENESES,090150001049A,1477,-0.621398750307043,Medio
268,19.442467,-99.151658,268 LUIS DONALDO COLOSIO-AV.JESÚS GARCÍA ,090150001049A,1477,-0.621398750307043,Medio
269,19.442448,-99.151586,269 LUIS DONALDO COLOSIO-ALDAMA ,090150001049A,1477,-0.621398750307043,Medio
271,19.443928,-99.152525,271 AV. CENTRAL-J. MENESES ,090150001049A,1477,-0.621398750307043,Medio
272,19.443556,-99.152556,272 AV. CENTRAL-J. MENESES ,090150001049A,1477,-0.621398750307043,Medio
273,19.442707,-99.152956,273 LUIS DONALDO COLOSIO-AV. CENTRAL,090150001049A,1477,-0.621398750307043,Medio
274,19.442772,-99.153289,274 LUIS DONALDO COLOSIO-AV INSURGENTES NORTE ,090150001049A,1477,-0.621398750307043,Medio
275,19.441062,-99.153164,275 HÉROES FERROCARRILEROS-AV. INSURGENTES NORTE,090150001049A,1477,-0.621398750307043,Medio
56,19.416959,-99.165702,56 ALVARO OBREGON-MEDELLIN,090150001120A,2212,-1.226768818199620,Muy bajo
59,19.415121,-99.166661,59 POPOCATEPETL-AMSTERDAM,090150001120A,2212,-1.226768818199620,Muy bajo
64,19.412877,-99.166986,64 SONORA-AMSTERDAM,090150001120A,2212,-1.226768818199620,Muy bajo
47,19.419515,-99.166299,47 GLORIETA CIBELES-OAXACA,0901500011093,1253,-1.024057926128780,Muy bajo
51,19.417995,-99.168248,51 COLIMA-OAXACA,0901500011093,1253,-1.024057926128780,Muy bajo
39,19.421759,-99.16694,39 PUEBLA-MEDELLÍN,0901500010998,3040,-0.788140442242280,Bajo
40,19.42223,-99.164297,40 OAXACA-PUEBLA,0901500010998,3040,-0.788140442242280,Bajo
42,19.420472,-99.168238,42 SINALOA-VALLADOLID,0901500010998,3040,-0.788140442242280,Bajo
46,19.419214,-99.169732,46 DURANGO-SALAMANCA,0901500010998,3040,-0.788140442242280,Bajo
18,19.42888,-99.164176,18 REFORMA-RIO RHIN,0901500010837,807,-1.410804570127490,Muy bajo
19,19.429241,-99.163377,19 REFORMA-RIO RHIN,0901500010837,807,-1.410804570127490,Muy bajo
20,19.430964,-99.160206,20 REFORMA-RIO TAMESIS,0901500010837,807,-1.410804570127490,Muy bajo
85,19.43425,-99.162508,85 ROSAS MORENO-SULLIVAN,0901500010682,4065,-1.137351998546470,Muy bajo
174,19.44111,-99.16164,174 JOAQUÍN GARCIA-IGNACIO MANUEL ALTAMIRANO,0901500010682,4065,-1.137351998546470,Muy bajo
255,19.437159,-99.161808,255 JOSE ROSAS MORENO-GUILLERMO PRIETO ,0901500010682,4065,-1.137351998546470,Muy bajo
65,19.436142,-99.139906,65 MARCONI-TACUBA,0901500010752,2274,-0.585351361744706,Medio
92,19.436531,-99.131497,92 SAN ILDEFONSO-REPUBLICA DE ARGENTINA,0901500010752,2274,-0.585351361744706,Medio
93,19.436741,-99.134811,93 PALMA NORTE-REPUBLICA DE CUBA,0901500010752,2274,-0.585351361744706,Medio
62,19.413322,-99.175202,62 FERNANDO MONTES DE OCA-AMATLAN,0901500011322,1488,-1.326335284155660,Muy bajo
146,19.410737,-99.165716,146 COAHUILA-MANZANILLO,0901500011356,3176,-1.112202782320740,Muy bajo
150,19.409965,-99.164292,150 CAMPECHE-MEDELLÍN,0901500011356,3176,-1.112202782320740,Muy bajo
152,19.409098,-99.167181,152 TLACOTALPAN-CAMPECHE,0901500011356,3176,-1.112202782320740,Muy bajo
153,19.407468,-99.165141,153 MANZANILLO-TLAXCALA,0901500011356,3176,-1.112202782320740,Muy bajo
154,19.406683,-99.167962,154 TUXPAN-TLAXCALA,0901500011356,3176,-1.112202782320740,Muy bajo
157,19.406236,-99.166616,157 TEPIC-TLACOTALPAN,0901500011356,3176,-1.112202782320740,Muy bajo
61,19.413742,-99.169525,61 AVENIDA MEXICO-SONORA,0901500011197,1678,-1.210493754530540,Muy bajo
63,19.413681,-99.171531,63 NUEVO LEON- LAREDO,0901500011197,1678,-1.210493754530540,Muy bajo
70,19.411272,-99.169718,70 PARQUE MEXICO-MICHOACAN,0901500011197,1678,-1.210493754530540,Muy bajo
71,19.411423,-99.171351,71 AMSTERDAM-MICHOACAN,0901500011197,1678,-1.210493754530540,Muy bajo
74,19.410343,-99.172831,74 NUEVO LEON-OZULAMA,0901500011197,1678,-1.210493754530540,Muy bajo
142,19.413232,-99.164121,142 SAN LUIS POTOSI-EJE 2 PTE. MONTERREY,0901500011214,2636,-1.088947700293280,Muy bajo
145,19.41286,-99.160661,145 EJE 2 SUR YUCATÁN-CHIAPAS,0901500011214,2636,-1.088947700293280,Muy bajo
147,19.412182,-99.158443,147 COAHUILA-ORIZABA,0901500011214,2636,-1.088947700293280,Muy bajo
156,19.407121,-99.162202,156 TEPIC-AMENALCO,0901500011360,1830,-1.132546390964270,Muy bajo
126,19.422288,-99.162138,126 JALAPA-PUEBLA,0901500011002,2936,-1.011443824052040,Muy bajo
128,19.422148,-99.160645,128 ORIZABA-RIO DE JANEIRO,0901500011002,2936,-1.011443824052040,Muy bajo
129,19.4206,-99.163312,129 TONALÁ-DURANGO,0901500011002,2936,-1.011443824052040,Muy bajo
131,19.419579,-99.161314,131 COLIMA-JALAPA,0901500011002,2936,-1.011443824052040,Muy bajo
134,19.418304,-99.15956,134 ÁLVARO OBREGÓN-ORIZABA,0901500011002,2936,-1.011443824052040,Muy bajo
136,19.417715,-99.162729,136 ÁLVARO OBREGÓN-TONALÁ,0901500011002,2936,-1.011443824052040,Muy bajo
100,19.428485,-99.1338,100 20 DE NOVIEMBRE-MESONES,0901500010894,2645,-0.386619884418030,Medio
101,19.428366,-99.135895,101 1ER. CALLEJÓN DE MESONES-MESONES,0901500010894,2645,-0.386619884418030,Medio
104,19.427059,-99.137116,104 SAN JERONIMO-ISABEL LA CATOLICA,0901500010894,2645,-0.386619884418030,Medio
105,19.426755,-99.135014,105 SAN JERONIMO-5 DE FEBRERO,0901500010894,2645,-0.386619884418030,Medio
106,19.42649,-99.133537,106 SAN JERONIMO-JOSE MARIA PINO SUAREZ,0901500010894,2645,-0.386619884418030,Medio
87,19.43182,-99.13974,87 GANTE-VENUSTIANO CARRANZA,0901500010818,249,-0.743225073655219,Bajo
90,19.431698,-99.132446,90 JOSE MARIA PINO SUAREZ-CORREGIDORA,0901500010818,249,-0.743225073655219,Bajo
95,19.430722,-99.133698,95 20 DE NOVIEMBRE-VENUSTIANO CARRANZA,0901500010818,249,-0.743225073655219,Bajo
97,19.429189,-99.132759,97 REPUBLICA DE SALVADOR-PINO SUAREZ,0901500010818,249,-0.743225073655219,Bajo
55,19.434356,-99.138064,55 5 DE MAYO-BOLIVAR,0901500010767,237,-1.084687188669290,Muy bajo
88,19.433815,-99.135303,88 2A CDA 5 DE MAYO-PALMA,0901500010771,1154,-0.076471739619676,Medio
89,19.434946,-99.133989,89 REPUBLICA DE GUATEMALA-MONTE DE PIEDAD,0901500010771,1154,-0.076471739619676,Medio
94,19.433766,-99.130918,94 LIC. VERDAD-MONEDA,0901500010771,1154,-0.076471739619676,Medio
180,19.404554,-99.169953,180 QUINTANA ROO-VILLA HERMOSA,0901500011430,1102,-1.217267254680700,Muy bajo
161,19.405533,-99.164913,161 QUINTANA ROO-MANZANILLO,090150001145A,3076,-0.995563333605957,Muy bajo
164,19.403204,-99.16596,164 BAJÍO-TLACOTALPAN,090150001145A,3076,-0.995563333605957,Muy bajo
83,19.406296,-99.172117,83 NUEVO LEON-ALFONSO REYES,0901500011426,1472,-1.068469965352500,Muy bajo
179,19.404452,-99.171438,179 NUEVO LEÓN-QUINTANA ROO,0901500011426,1472,-1.068469965352500,Muy bajo
181,19.40472,-99.17448,181 BENJAMIN FRANKLIN-OMETUSCO,0901500011426,1472,-1.068469965352500,Muy bajo
66,19.411402,-99.178666,66 MAZATLAN-FRANCISCO MARQUEZ,0901500011318,2916,-1.131818105267010,Muy bajo
67,19.411797,-99.17588,67 VICENTE SUAREZ-MICHOACAN,0901500011318,2916,-1.131818105267010,Muy bajo
68,19.411556,-99.17406,68 TAMAULIPAS-MICHOACAN,0901500011318,2916,-1.131818105267010,Muy bajo
73,19.410245,-99.175612,73 CAMPECHE-TAMAULIPAS,0901500011318,2916,-1.131818105267010,Muy bajo
75,19.408722,-99.17669,75 ALFONSO REYES-ATLIXCO,0901500011318,2916,-1.131818105267010,Muy bajo
69,19.410733,-99.168111,69 MICHOACAN-AMSTERDAM,0901500011341,4138,-1.121921775450120,Muy bajo
76,19.408736,-99.169913,76 CHILPANCINGO-CAMPECHE,0901500011341,4138,-1.121921775450120,Muy bajo
80,19.407307,-99.172118,80 NUEVO LEON-AGUASCALIENTES,0901500011341,4138,-1.121921775450120,Muy bajo
81,19.408006,-99.168475,81 AGUASCALIENTES-INSURGENTES,0901500011341,4138,-1.121921775450120,Muy bajo
84,19.40702,-99.169587,84 CHILPANCINGO-TLAXCALA,0901500011341,4138,-1.121921775450120,Muy bajo
79,19.407534,-99.174427,79 SALTILLO-ALFONSO REYES,0901500011337,1855,-1.195283472619250,Muy bajo
125,19.424541,-99.156204,125 MORELIA-CIRCULAR DE MORELIA,0901500011017,5041,-0.974209252205176,Muy bajo
127,19.423318,-99.15833,127 PUEBLA-MERIDA,0901500011017,5041,-0.974209252205176,Muy bajo
130,19.421576,-99.158015,130 MÉRIDA-DURANGO,0901500011017,5041,-0.974209252205176,Muy bajo
132,19.420667,-99.15645,132 COLIMA-FRONTERA,0901500011017,5041,-0.974209252205176,Muy bajo
133,19.421138,-99.154725,133 COLIMA-MORELIA,0901500011017,5041,-0.974209252205176,Muy bajo
135,19.419225,-99.155099,135 ÁLVARO OBREGÓN-MORELIA,0901500011017,5041,-0.974209252205176,Muy bajo
137,19.418774,-99.157081,137 ÁLVARO OBREGÓN-MÉRIDA,0901500011017,5041,-0.974209252205176,Muy bajo
98,19.430267,-99.14861,98 EMILIO DONDE-AV. BALDERAS,0901500010860,1958,-0.555446832898137,Medio
107,19.427329,-99.149971,107 TOLSA-BALDERAS,0901500010860,1958,-0.555446832898137,Medio
108,19.427305,-99.149533,E108 TOLSA-BALDERAS,0901500010860,1958,-0.555446832898137,Medio
123,19.424161,-99.153117,123 CLAUDIO BERNARD-DR. LAVISTA,0901500011534,3036,-1.022745918280060,Muy bajo
124,19.422392,-99.150358,124 CLAUDIO BERNARD-DR. LICEAGA,0901500011534,3036,-1.022745918280060,Muy bajo
112,19.432819,-99.151734,112 AV. MORELOS-ABRAHAM GONZALEZ,0901500010856,3125,-0.806815265571647,Bajo
113,19.430369,-99.154419,113 GENERAL PRIM-VERSALLES,0901500010856,3125,-0.806815265571647,Bajo
114,19.428989,-99.153618,114 LUCERNA-ABRAHAM GONZALEZ ,0901500010856,3125,-0.806815265571647,Bajo
119,19.42679,-99.15554,119 TURÍN-ABRAHAM GONZÁLEZ,0901500010856,3125,-0.806815265571647,Bajo
99,19.42995,-99.14591,99 ERNESTO PUGIBET-LUIS MOYA,0901500010875,8210,-0.759503708677776,Bajo
110,19.42513,-99.14339,110 DR. VALENZUELA-DR. RÍO DE LA LOZA,0901500010875,8210,-0.759503708677776,Bajo
122,19.425502,-99.146337,122 JOSE MARIA VERTIZ-AV.DR. RIO DE LA LOZA,0901500010875,8210,-0.759503708677776,Bajo
448,19.426611,-99.14447,448 DR. ANDRADE - ARCOS DE BELÉN,0901500010875,8210,-0.759503708677776,Bajo
138,19.417702,-99.155313,138 GUANAJUATO-FRONTERA,0901500011110,5904,-1.031654110699530,Muy bajo
140,19.416605,-99.156853,140 MÉRIDA-ZACATECAS,0901500011110,5904,-1.031654110699530,Muy bajo
143,19.414303,-99.157542,143 CÓRDOBA-SAN LUIS POTOSÍ,0901500011110,5904,-1.031654110699530,Muy bajo
144,19.415192,-99.154837,144 FRONTERA-SAN LUIS POTOSÍ,0901500011110,5904,-1.031654110699530,Muy bajo
148,19.412829,-99.155116,148 COAHUILA-AV.CUAUHTEMOC,0901500011110,5904,-1.031654110699530,Muy bajo
149,19.41199,-99.155699,149 MÉRIDA-ANTONIO ANZA,0901500011110,5904,-1.031654110699530,Muy bajo
139,19.416128,-99.162097,E139 TONALÁ-GUANJUATO,0901500011106,2127,-0.766973574220115,Bajo
141,19.415905,-99.15954,141 ZACATECAS-LUIS CABRERA,0901500011106,2127,-0.766973574220115,Bajo
240,19.43855,-99.2063,240 EJERCITO NACIONAL-F.C. DE CUERNAVACA ,0901600010622,4691,-1.144847852405630,Muy bajo
241,19.43862,-99.20758,E241 EJERCITO NAL-JUAN VAZQUEZ DE LA MELLA ,0901600010622,4691,-1.144847852405630,Muy bajo
460,19.437014,-99.207932,460 JUAN VÁZQUEZ DE MELLA-HOMERO,0901600010622,4691,-1.144847852405630,Muy bajo
200,19.437596,-99.188785,200 EMERSON-AV. EJERCITO NACIONAL,0901600010660,4114,-1.165943062415040,Muy bajo
201,19.437431,-99.187215,201 LOPE DE VEGA-EJERCITO NACIONAL ,0901600010660,4114,-1.165943062415040,Muy bajo
208,19.434182,-99.189835,208 HESIODO-LAMARTINE ,0901600010660,4114,-1.165943062415040,Muy bajo
207,19.434861,-99.183322,207 TASSO-HOMERO ,090160001068A,2346,-1.341191140169230,Muy bajo
217,19.432888,-99.183605,217 EULER-AV. HORACIO ,090160001068A,2346,-1.341191140169230,Muy bajo
226,19.431033,-99.18222,226 WALLON-PRESIDENTE MASARYK,090160001068A,2346,-1.341191140169230,Muy bajo
239,19.430153,-99.181355,239 RINCON DEL BOSQUE-RUBEN DARÍO ,090160001068A,2346,-1.341191140169230,Muy bajo
247,19.432276,-99.18064,E247 HERSCHEL-ROUSSEAU ,090160001068A,2346,-1.341191140169230,Muy bajo
250,19.429057,-99.17966,250 DARWIN-MARIANO ESCOBEDO ,090160001068A,2346,-1.341191140169230,Muy bajo
253,19.425835,-99.177924,253 DANTE-TOLSTOI ,090160001068A,2346,-1.341191140169230,Muy bajo
467,19.440399,-99.186784,E467  LAGO MAYOR-LAGO ALBERTO,0901600010478,3347,-1.367722270714500,Muy bajo
476,19.442127,-99.184433,476 LAGO COMO-LAGUNA DE MAYRÁN,0901600010478,3347,-1.367722270714500,Muy bajo
196,19.438349,-99.192904,196 LAGO TANGANICA-AV. EJERCITO NACIONAL,0901600010571,1924,-1.125062689627350,Muy bajo
244,19.440885,-99.193315,244 MIGUEL DE CERVANTES SAAVEDRA-LAGO VICTORIA ,0901600010571,1924,-1.125062689627350,Muy bajo
245,19.43819,-99.19048,245 LAGO ONEGA-AV. EJERCITO NACIONAL ,0901600010571,1924,-1.125062689627350,Muy bajo
473,19.438143,-99.17519,473 BAHÍA DEL ESPÍRITU SANTO-BAHÍA DE BANDERAS,0901600010590,696,-1.191350305729190,Muy bajo
199,19.437934,-99.197241,199 ANATOLE FRANCE-AV. EJERCITO NACIONAL,0901600010641,1835,-1.188824248908100,Muy bajo
202,19.43617,-99.198943,202 CALDERON DE LA BARCA-AV. HOMERO,0901600010641,1835,-1.188824248908100,Muy bajo
215,19.43384,-99.19968,215 EDGAR ALAN POE-HORACIO,0901600010641,1835,-1.188824248908100,Muy bajo
246,19.434147,-99.179835,246 LEIBNITZ-THIERS,0901600010694,1083,-1.361429897906910,Muy bajo
248,19.43175,-99.177399,248 SHAKESPEARE-LAFAYETTE ,0901600010694,1083,-1.361429897906910,Muy bajo
249,19.429877,-99.177569,249 SHAKESPEARE-DARWIN ,0901600010694,1083,-1.361429897906910,Muy bajo
466,19.44269,-99.19083,466  LAGO ONEGA-LAGO LADOGA,0901600010463,3524,-0.583618373138152,Medio
198,19.438168,-99.203888,198 SÓCRATES-EJERCITO NACIONAL ,0901600010637,3398,-1.233492678349890,Muy bajo
206,19.435798,-99.201419,206 MOLIERE-HOMERO ,0901600010637,3398,-1.233492678349890,Muy bajo
209,19.435478,-99.206359,209 SOLON-HORACIO ,0901600010637,3398,-1.233492678349890,Muy bajo
213,19.43432,-99.20632,213 SOLÓN-CICERÓN,0901600010637,3398,-1.233492678349890,Muy bajo
214,19.434353,-99.20322,214 PLATÓN-HORACIO,0901600010637,3398,-1.233492678349890,Muy bajo
219,19.433542,-99.207808,219 ESOPO-FC DE CUERNAVACA,0901600010637,3398,-1.233492678349890,Muy bajo
220,19.432655,-99.205727,220 PLINIO-PRESIDENTE MASARYK ,0901600010637,3398,-1.233492678349890,Muy bajo
205,19.435525,-99.184713,205 TAINE-HOMERO,0901600010675,2485,-1.092271790342280,Muy bajo
211,19.433607,-99.188528,211 NEWTON-HORACIO,0901600010675,2485,-1.092271790342280,Muy bajo
212,19.433567,-99.188096,212 HEGEL-HORACIO ,0901600010675,2485,-1.092271790342280,Muy bajo
218,19.432451,-99.188033,218 HEGEL-IBARBOUROU ,0901600010675,2485,-1.092271790342280,Muy bajo
243,19.440839,-99.196712,243 MIGUEL DE CERVANTES SAAVEDRA-LAGO FILT ,0901600010552,0,0.000000000000000,
188,19.41171,-99.19014,188 GDOR MELCHOR MÚZQUIZ-GDOR IGNACIO ESTEVA ,0901600011160,6974,-1.128826803385870,Muy bajo
189,19.41004,-99.18798,189 GDOR RAFAEL REBOLLAR-GDOR JOSÉ CEBALLOS,0901600011160,6974,-1.128826803385870,Muy bajo
191,19.4079,-99.18795,191 GDOR RAFAEL REBOLLAR-GDOR VICENTE EGUIA,0901600011160,6974,-1.128826803385870,Muy bajo
457,19.42703,-99.212845,E457 AV. PRADO NORTE-EXPLANADA,0901600010872,1440,-1.176493716350770,Muy bajo
456,19.427517,-99.208412,456 ALPES-MONTES ESCANDINAVOS,0901600010887,249,-1.404250386602210,Muy bajo
170,19.404029,-99.184342,170 OBSERVATORIO ORIENTE-REVOLUCIÓN,0901600011175,1619,-1.026989260099530,Muy bajo
173,19.401682,-99.176398,173 MINERÍA-JOSÉ MARTÍ,0901600011207,7668,-1.029680209873380,Muy bajo
285,19.3997946,-99.1775178,285 12 DE OCTUBRE-MINERIA,0901600011207,7668,-1.029680209873380,Muy bajo
452,19.435031,-99.179838,452 LEIBNITZ-AV. EJERCITO NACIONAL,0901600010707,1935,-1.408944071508000,Muy bajo
186,19.4124291,-99.1885117,186 GREGORIO V GELATI-FRANCISCO MOLINOS DEL C,0901600011029,2340,-1.193497529737040,Muy bajo
187,19.41123,-99.18551,187 GENERAL CANO-GOBERNADOR GREGORIO V GELATI,0901600011029,2340,-1.193497529737040,Muy bajo
190,19.409569,-99.183833,E190 GDOR IGNACIO ESTEVA-MTRO JOSÉ VASCONCELOS,0901600011029,2340,-1.193497529737040,Muy bajo
286,19.399201,-99.179943,286 13 DE SEPTIEMBRE-AVENIDA PATRIOTISMO,0901600011211,5038,-1.151596802700790,Muy bajo
287,19.398946,-99.183254,287 13 DE SEPTIEMBRE-PUENTE DE LA MORENA,0901600011211,5038,-1.151596802700790,Muy bajo
224,19.431255,-99.188065,224 HEGEL-PRESIDENTE MASARYK,0901600010783,3229,-1.285491445204630,Muy bajo
225,19.431172,-99.185612,225 PETRARCA-PRESIDENTE MASARYK,0901600010783,3229,-1.285491445204630,Muy bajo
232,19.42894,-99.185389,232 TAINE-RUBEN DARÍO ,0901600010783,3229,-1.285491445204630,Muy bajo
234,19.42783,-99.191539,234 TRES PICOS-ARQUÍMIDES ,0901600010783,3229,-1.285491445204630,Muy bajo
251,19.429261,-99.17538,251 GOETHE-DARWIN ,0901600010711,2906,-1.118852625423540,Muy bajo
252,19.427575,-99.17702,252 VICTOR HUGO-SHAKESPEARE ,0901600010711,2906,-1.118852625423540,Muy bajo
229,19.430515,-99.203331,229 DICKENS-SENECA,0901600010745,2734,-1.221921885641520,Muy bajo
235,19.42933,-99.20218,235 CAMPOS ELISEOS-MOLIERE ,0901600010745,2734,-1.221921885641520,Muy bajo
236,19.42944,-99.20243,236 CAMPOS ELISEOS-MOLIERE ,0901600010745,2734,-1.221921885641520,Muy bajo
451,19.42902,-99.201322,451 CAMPOS ELÍSEOS-GOLDSMITH,0901600010745,2734,-1.221921885641520,Muy bajo
221,19.431799,-99.201565,221 EMILIO CASTELAR-PRESIDENTE MASARYK ,090160001075A,764,-1.073109886347840,Muy bajo
228,19.427705,-99.19912,228 CAMPOS ELÍSEOS-JEAN DE LA FONTAINE,090160001075A,764,-1.073109886347840,Muy bajo
230,19.430098,-99.200074,230 EDGAR ALAN POE-DICKENS,090160001075A,764,-1.073109886347840,Muy bajo
233,19.429314,-99.196965,233 JULIO VERNE-LUIS G. URBINA ,090160001075A,764,-1.073109886347840,Muy bajo
203,19.435985,-99.194832,203 TENNYSON-AV. HOMERO,0901600010656,3400,-1.206356478069110,Muy bajo
204,19.435882,-99.19152,204 TEMISTOCLES-HOMERO,0901600010656,3400,-1.206356478069110,Muy bajo
210,19.434076,-99.194091,210 EUGENIO SUE-HORACIO ,0901600010656,3400,-1.206356478069110,Muy bajo
216,19.433419,-99.195746,216 ALEJANDRO DUMAS-HORACIO ,0901600010656,3400,-1.206356478069110,Muy bajo
197,19.440077,-99.204316,197 MIGUEL DE CERVANTES-FC DE CUERNAVACA,0901600010444,3252,-1.415456071353820,Muy bajo
242,19.440344,-99.20105,242 MIGUEL DE CERVANTES SAAVEDRA-PROL MOLIERE ,0901600010444,3252,-1.415456071353820,Muy bajo
462,19.442338,-99.205198,462 PRESA FALCÓN-DANXHÓ,0901600010444,3252,-1.415456071353820,Muy bajo
463,19.442338,-99.202492,463 LAGO ANDRÓMACO-LAGO ZURICH,0901600010444,3252,-1.415456071353820,Muy bajo
464,19.442421,-99.199838,E464 MATEO ALEMÁN-PROLONGACIÓN MOLIERE ,0901600010459,3396,-0.878826221494199,Bajo
453,19.424842,-99.203739,453 PEDREGAL-TEAPA,0901600010995,1888,-1.294994715463570,Muy bajo
454,19.425905,-99.204236,E454 MONTES URALES-MONTE PELVOUX,0901600010995,1888,-1.294994715463570,Muy bajo
455,19.426308,-99.203302,455 PEDREGAL-FERROCARRIL DE CUERNAVACA,0901600010995,1888,-1.294994715463570,Muy bajo
175,19.400767,-99.172533,E175 MUTUALISMO-JOSÉ MARTí,0901600011226,5214,-1.214426352862830,Muy bajo
182,19.402089,-99.17139,182 PROGRESO-ASTRONOMOS,0901600011226,5214,-1.214426352862830,Muy bajo
468,19.434183,-99.173089,468 LAGO XOCHIMILCO-AV. EJÉRCITO NACIONAL,0901600010603,2360,-1.109332494173360,Muy bajo
469,19.434183,-99.173089,E469 BAHÍA DE LA CONCEPCIÓN-BAHÍA DE TODOS LOS SAN,0901600010603,2360,-1.109332494173360,Muy bajo
470,19.435039,-99.173879,470 BAHÍA DE LAS PALMAS-BAHÍA DE TODOS LOS SANTOS,0901600010603,2360,-1.109332494173360,Muy bajo
471,19.436287,-99.174888,471 BAHÍA DE CHACHALACAS-BAHÍA SANTA BÁRBARA ,0901600010603,2360,-1.109332494173360,Muy bajo
472,19.437667,-99.17711,E472 BAHÍA SANTA BÁRBARA-BAHÍA DE BALLENAS ,0901600010603,2360,-1.109332494173360,Muy bajo
474,19.438984,-99.177549,474 BAHÍA DE SAN HIPÓLITO-BAHÍA DEL ESPÍRITU SANTO,0901600010482,4421,-0.921590139225098,Bajo
475,19.439249,-99.181065,475 LAGO MURITZ-LAGO ALBERTO,0901600010482,4421,-0.921590139225098,Bajo
477,19.440905,-99.181743,477 LAGO ISEO-LAGUNA DE MAYRÁN ,0901600010482,4421,-0.921590139225098,Bajo
478,19.440818,-99.176961,478 LAGUNA DE MAYRÁN-LAGO CHALCO,0901600010482,4421,-0.921590139225098,Bajo
479,19.444433,-99.179664,E479 LAGO MURITZ-AV. MARINA NACIONAL,0901600010482,4421,-0.921590139225098,Bajo
480,19.446073,-99.181654,480 LAGO ISEO-AV. MARINA NACIONAL,0901600010482,4421,-0.921590139225098,Bajo
222,19.431417,-99.195774,E222 ALEJANDRO DUMAS-PRESIDENTE MASARYK,0901600010779,1467,-1.410593246912780,Muy bajo
223,19.431242,-99.191613,223 NEWTON-PRESIDENTE MASARYK ,0901600010779,1467,-1.410593246912780,Muy bajo
231,19.42977,-99.19349,231 NEWTON-ARISTOTELES ,0901600010779,1467,-1.410593246912780,Muy bajo
237,19.426744,-99.193986,237 ANDRÉS BELLO-ELLIOT ,0901600010779,1467,-1.410593246912780,Muy bajo
238,19.426765,-99.193752,238 ANDRÉS BELLO-ELLIOT ,0901600010779,1467,-1.410593246912780,Muy bajo
465,19.445039,-99.194078,465 LAGUNA DE GINEBRA-LAGO WETTER,0901600011349,6342,-0.613346458135579,Medio
166,19.406069,-99.183549,166 PROGRESO-CDA. ANTONIO MACEO,090160001118A,7418,-1.179714655300300,Muy bajo
167,19.404651,-99.179375,167 GENERAL SALVADOR ALVARADO-PROGRESO,090160001118A,7418,-1.179714655300300,Muy bajo
168,19.403997,-99.1776,168 COMERCIO-PROGRESO,090160001118A,7418,-1.179714655300300,Muy bajo
169,19.403019,-99.174934,169 PROSPERIDAD-PROGRESO,090160001118A,7418,-1.179714655300300,Muy bajo
171,19.402584,-99.178199,171 COMERCIO-JOSE MARTÍ,090160001118A,7418,-1.179714655300300,Muy bajo
172,19.4034921,-99.1816002,172 GENERAL FRANCISCO MURGUIA-JOSE MARTÍ,090160001118A,7418,-1.179714655300300,Muy bajo
461,19.440106,-99.210031,461 PRESA DON MARTÍN-BOULEVARD MIGUEL DE CERVANTES,0901600010533,0,0.000000000000000,
192,19.42592,-99.190755,192 RUBEN DARIO-REFORMA,0901600010798,253,-1.376497778498670,Muy bajo
193,19.425907,-99.190733,193 RUBEN DARIO-REFORMA,0901600010798,253,-1.376497778498670,Muy bajo
194,19.424282,-99.180334,194 CTO MAHATMA GANDHI-AV. PASEO DE LA REFORMA,0901600010798,253,-1.376497778498670,Muy bajo
195,19.424926,-99.185147,195 AV. PASEO DE LA REFORMA-CTO MAHATMA GANDHI,0901600010798,253,-1.376497778498670,Muy bajo
184,19.41479,-99.18508,184 GRAL GÓMEZ PEDRAZA-GOBERNADOR TIBURCIO M,0901600010891,2133,-1.134832432670980,Muy bajo
185,19.4128,-99.1828,185 GRAL ANTONIO LÉON-GRAL PEDRO A DE LOS S.,0901600010891,2133,-1.134832432670980,Muy bajo
227,19.431791,-99.207373,227 CAMPOS ELÍSEOS-PERIFÉRICO,0901600010849,1030,-1.198150932378410,Muy bajo
458,19.428679,-99.206605,458 MONTES URALES-VOLCÁN,0901600010849,1030,-1.198150932378410,Muy bajo
459,19.429243,-99.207267,E459 VOLCÁN-MONTES URALES,0901600010849,1030,-1.198150932378410,Muy bajo
